{
   "inPersonBusinesses": [
      {
         "ID": "2",
         "NAME": "Kaspace Cafe",
         "TYPE": "Restaurants, Bakeries & Grocery",
         "LATITUDE": "43.6627304",
         "LONGITUDE": "-79.334209",
         "ADDRESS": "1183 Queen E",
         "POSTAL_CODE": "M4M 1L6",
         "CITY": "Toronto, ON",
         "WEBSITE": "https://www.kaspacecafe.com/",
         "DESCRIPTION": "Our mission is to create a hybrid of cafe and restaurant that nurtures delicious organic vegetarian and vegan foods. Fuel the mind and soul without compromising ingredients.",
         "CONTACT_INFO": "https://www.instagram.com/kaspace_cafe/"
      },
      {
         "ID": "11",
         "NAME": "NATFITGO",
         "TYPE": "Doctors, Health & Fitness",
         "LATITUDE": "43.6719307",
         "LONGITUDE": "-79.4241368",
         "ADDRESS": "672 Dupont Street",
         "POSTAL_CODE": "M6G 1Z5",
         "CITY": "Toronto, ON",
         "WEBSITE": "https://www.natfitgo.com/",
         "DESCRIPTION": "Originally from the French-Caribbean, I have lived and travelled a lot throughout Europe before moving to Toronto. I started working as a Personal Trainer a few years ago just to motivate my friends. I  quickly realized how much benefits people are getting from working out. Once I got CANFITPRO certified as a Personal Trainer Specialist, my hobby became my passion, which became my career.",
         "CONTACT_INFO": "416-824-5884\r\nnatfitgo@gmail.com"
      },
      {
         "ID": "12",
         "NAME": "ALIGNED ONE WELLNESS",
         "TYPE": "Doctors, Health & Fitness",
         "LATITUDE": "43.6764591",
         "LONGITUDE": "-79.3460992",
         "ADDRESS": "698 Danforth Avenue Suite 102",
         "POSTAL_CODE": "M4J 1L1",
         "CITY": "Toronto, ON",
         "WEBSITE": "https://alignedonewellness.ca/",
         "DESCRIPTION": "Aligned One Wellness is not a spa nor is it a clinic. It is a healing space that brings together intuitive healers and healthcare professionals whose collective purpose is to heal, uplift and educate the WHOLE you. Body, mind and spirit.",
         "CONTACT_INFO": "(647) 448-7663\r\ninfo@alignedonewellness.ca\r\nhttps://www.facebook.com/alignedonewellness/\r\nhttps://www.instagram.com/alignedonewellness\r\nhttps://www.youtube.com/channel/UC2RKmz8zgvqKmyVGNWvtQUA"
      },
      {
         "ID": "14",
         "NAME": "THE HEALTH INSTITUTE",
         "TYPE": "Doctors, Health & Fitness",
         "LATITUDE": "43.772059",
         "LONGITUDE": "-79.1870433",
         "ADDRESS": "4549 Kingston Rd. Unit B",
         "POSTAL_CODE": "M1E 2P1",
         "CITY": "Scarborough, ON",
         "WEBSITE": "https://www.thehealthinstitute.ca/",
         "DESCRIPTION": "The Health Institute (THI) was founded in 2010 offering a unique approach to health care. The name of the facility reflects the idea that services offered will assist to establish, organize, and set in operation a healthy lifestyle, injury prevention and performance enhancement at work, play or while competing.",
         "CONTACT_INFO": "416 546 5077\r\ninfo@thehealthinstitute.ca"
      },
      {
         "ID": "16",
         "NAME": "NHI NURSING",
         "TYPE": "Doctors, Health & Fitness",
         "LATITUDE": "43.7840756",
         "LONGITUDE": "-79.2904206",
         "ADDRESS": "2347 Kennedy Rd",
         "POSTAL_CODE": "M1T 3T8",
         "CITY": "Toronto, ON",
         "WEBSITE": "https://www.nhihealthcare.com/",
         "DESCRIPTION": "NHI-Nursing & Homemakers Inc. provides health care staffing and homecare needs. With increasing technologies in the health care industry, changes are taking place that are impacting the lives of all those who work in the industry. Our community of baby boomers have now turned to the internet to find the information they need. From shopping online to acquiring the services they need to help them in their decision making as they assume the role of the caregivers for their parents.",
         "CONTACT_INFO": "416-754-0700 \r\n1-800-567-6877 \r\nstaffing@nhihealthcare.com\r\nhttps://www.facebook.com/nursingandhomemakers/\r\nhttps://twitter.com/Nhihealthcare\r\nhttps://www.instagram.com/nhihealthcare/"
      },
      {
         "ID": "19",
         "NAME": "TONY'S SKINNY CHEF BISTRO",
         "TYPE": "Restaurants, Bakeries & Grocery",
         "LATITUDE": "43.535488",
         "LONGITUDE": "-79.689876",
         "ADDRESS": "6435 Dixie Road",
         "POSTAL_CODE": "L5T 1X4",
         "CITY": "Mississauga, ON",
         "WEBSITE": "https://www.tonysskinnychefbistro.com/",
         "DESCRIPTION": "At Tony's Skinny Chef Bistro, we are dedicated to serving delicious Canadian, Italian, and Caribbean Fusion cuisine. We value customer satisfaction and strive to make fresh, exciting meals that draw on the strengths of both cuisines.",
         "CONTACT_INFO": "(905) 564-8955\r\n"
      },
      {
         "ID": "20",
         "NAME": "AFRICAN ROYAL FOODS",
         "TYPE": "Restaurants, Bakeries & Grocery",
         "LATITUDE": "43.693585",
         "LONGITUDE": "-79.7717143",
         "ADDRESS": "332 Main St N",
         "POSTAL_CODE": "L6V 1P8",
         "CITY": "Brampton, ON",
         "WEBSITE": "https://www.facebook.com/AfricanRoyalFoods/",
         "DESCRIPTION": "African Royal Foods is a West Indian & African Grocery store that specializes in tropical food items.",
         "CONTACT_INFO": "(905) 454-0304"
      },
      {
         "ID": "33",
         "NAME": "RIDDIM FITNESS CENTRE",
         "TYPE": "Doctors, Health & Fitness",
         "LATITUDE": "43.8304324",
         "LONGITUDE": "-79.0236656",
         "ADDRESS": "845 Westney Road South, UNIT#7",
         "POSTAL_CODE": "L1S 7E9",
         "CITY": "Ajax, ON",
         "WEBSITE": "https://riddimfit.com/",
         "DESCRIPTION": "Keishia founded Riddim Fitness Inc in April 2014 wanting to bring her love for fitness to community members. ",
         "CONTACT_INFO": "(647) 981-5256\r\nriddimfit@gmail.com\r\nhttps://www.facebook.com/373630512690742\r\nhttps://twitter.com/riddimfit\r\nhttps://www.instagram.com/riddimfit\r\nhttps://www.youtube.com/channel/UCR8PZfH1ud_vO5qo57Y_4FA"
      },
      {
         "ID": "34",
         "NAME": "Apex Health and Fitness",
         "TYPE": "Doctors, Health & Fitness",
         "LATITUDE": "43.8302086",
         "LONGITUDE": "-79.0286415",
         "ADDRESS": "700 Finley Ave, Unit 10",
         "POSTAL_CODE": "L1S 3Z2",
         "CITY": "Ajax, ON",
         "WEBSITE": "https://www.apexhealthandfitness.ca/",
         "DESCRIPTION": "Established in 2005, Apex Health & Fitness is an award winning facility that offers a range of services to meet your health and fitness needs and goals.",
         "CONTACT_INFO": "carl.carterrmt@hotmail.com\r\n905-239-7459\r\n416-509-6258"
      },
      {
         "ID": "36",
         "NAME": "PROTELLUS",
         "TYPE": "Business, Services & Technology",
         "LATITUDE": "43.6541632",
         "LONGITUDE": "-79.3831493",
         "ADDRESS": "250 Yonge Street, Suite 2201",
         "POSTAL_CODE": "M5B 2L7",
         "CITY": "Toronto, ON",
         "WEBSITE": "https://www.protellus.ca/",
         "DESCRIPTION": "Protellus provides complete online marketing solutions to help small businesses leap from struggle to stride.",
         "CONTACT_INFO": "inquiry@protellus.ca\r\n416-574-2036\r\nhttps://linkedin.com/company/protellus-digital-marketing\r\nhttps://twitter.com/Protellus1\r\nhttps://facebook.com/protellusdigitalmarketing"
      },
      {
         "ID": "38",
         "NAME": "SuiteLife Arts for Youth",
         "TYPE": "Art, Artists & Art Galleries",
         "LATITUDE": "43.6496482",
         "LONGITUDE": "-79.4233014",
         "ADDRESS": "248 Ossington Ave",
         "POSTAL_CODE": "M6J 3A2",
         "CITY": "Toronto, ON",
         "WEBSITE": "https://www.suitelifearts.org/",
         "DESCRIPTION": "Since 1997 SuiteLife has continued developing comprehensive arts education and presentation driven programs - making the performing and visual arts more accessible to young people throughout Toronto.",
         "CONTACT_INFO": "(416) 691-3269\r\ninfo@suitelifearts.org\r\nhttps://www.facebook.com/SuiteLifeArts/\r\nhttps://twitter.com/startypa\r\nhttps://www.youtube.com/channel/UCGlSAEuKRe0UBZr5M6MGX9Q?view_as=subscriber\r\nhttps://www.instagram.com/startypa/"
      },
      {
         "ID": "39",
         "NAME": "Tray Arts",
         "TYPE": "Art, Artists & Art Galleries",
         "LATITUDE": "43.7600044",
         "LONGITUDE": "-79.5726011",
         "ADDRESS": "181 Millwick Dr",
         "POSTAL_CODE": "​M9L 2X2",
         "CITY": "North York, ON",
         "WEBSITE": "https://trayarts.ca/",
         "DESCRIPTION": "Tray Arts has on of the best Paint Nights (Virtual in Studio) in Toronto. Tray Arts paint paintings to uplift the black community. Look of black people is suffering from mental health and Tray Arts job is to help you get through that with Art. Once you have done a Tray Arts Paint Night you will be hooked!",
         "CONTACT_INFO": "https://www.instagram.com/trayarts/\r\nhttps://www.instagram.com/trayartsfreaks/\r\nhttps://www.youtube.com/channel/UCqSPWMgb7k3p4GiYbYMj-gQ\r\nhttps://www.facebook.com/trayartslive/\r\n647.687.3995\r\nTRAYARTS@GMAIL.COM"
      },
      {
         "ID": "41",
         "NAME": "Chemagne Dance Productions",
         "TYPE": "Art, Artists & Art Galleries",
         "LATITUDE": "43.6718881",
         "LONGITUDE": "-79.3954049",
         "ADDRESS": "35 Hazelton Ave.",
         "POSTAL_CODE": "M5R 2E3",
         "CITY": "Toronto, ON",
         "WEBSITE": "https://www.chemagnedance.com/Chemagne_Dance_Home.html",
         "DESCRIPTION": "One on one Private tutoring and mentoring sessions, performances, private Instruction, workshops. Dance movement consultant",
         "CONTACT_INFO": "416.803.5552 \r\n"
      },
      {
         "ID": "42",
         "NAME": "Collective Music Nation",
         "TYPE": "Art, Artists & Art Galleries",
         "LATITUDE": "43.7763933",
         "LONGITUDE": "-79.2440731",
         "ADDRESS": "1121 Bellamy Rd N",
         "POSTAL_CODE": "M1H 3B9",
         "CITY": "Scarborough, ON",
         "WEBSITE": "https://www.collectivemusicnation.com/",
         "DESCRIPTION": "Collective Music Nation (CMN) is a national non-profit organization that unifies, amplifies and advocates for the needs of the Canadian Urban (culturally/historically Black) music community.",
         "CONTACT_INFO": "https://www.instagram.com/thecollectivemusicnation/\r\nhttps://twitter.com/CoMusicNaInc\r\nhttps://fb.me/collectivemusicnation\r\nhttps://www.linkedin.com/in/collectivemusicnation\r\nhttps://follow.it/urbanmusicnation?action=followPub\r\n(437) 703-1988\r\n1-855-437-0370"
      },
      {
         "ID": "43",
         "NAME": "Infinite Modesty Designs",
         "TYPE": "Art, Artists & Art Galleries",
         "LATITUDE": "43.7216978",
         "LONGITUDE": "-79.4599272",
         "ADDRESS": "14 Bentworth Ave",
         "POSTAL_CODE": "M6A 1P3",
         "CITY": "North York, ON",
         "WEBSITE": "https://www.infinitemodestydesigns.com/",
         "DESCRIPTION": "My Name is Gellis Jerome-Milandou, I am a Register Practical Nurse and a professional Sewing Instructor. I plan to continue to bring the love of Sewing and Fashion to all ages, races, and cultures. I am a woman from an African background and I love the African culture.",
         "CONTACT_INFO": "416-742-9931\r\ngellis@infinitemodestydesigns.com\r\n"
      },
      {
         "ID": "45",
         "NAME": "FRONTLINES",
         "TYPE": "Community & Faith Centers",
         "LATITUDE": "43.6993029",
         "LONGITUDE": "-79.5167973",
         "ADDRESS": "1844 Weston Road",
         "POSTAL_CODE": "M9N 1V8",
         "CITY": "Toronto, ON",
         "WEBSITE": "https://frontlines.to/",
         "DESCRIPTION": "We are a community drop-in centre that fosters & restores wellness & respect by offering much needed services & programs to children, youth & other groups.",
         "CONTACT_INFO": "info@frontlines.to\r\n416) 244-7017\r\nhttps://www.facebook.com/frontlines.to/\r\nhttps://twitter.com/frontlinesto\r\nhttps://www.instagram.com/frontlines.to"
      },
      {
         "ID": "46",
         "NAME": "AFRI-CAN FOOD BASKET",
         "TYPE": "Community & Faith Centers",
         "LATITUDE": "43.7737857",
         "LONGITUDE": "-79.5234634",
         "ADDRESS": "4929 Jane St",
         "POSTAL_CODE": "M3N 2K8",
         "CITY": "North York, ON",
         "WEBSITE": "https://africanfoodbasket.ca/",
         "DESCRIPTION": "We are a non-profit community food security movement that is committed to meeting the nutrition, health & employment needs of our members.",
         "CONTACT_INFO": "info@africanfoodbasket.ca\r\n(416) 832-5639\r\nhttps://twitter.com/africanfoodbskt\r\nhttps://www.facebook.com/AfriCanFoodBasket\r\nhttps://www.instagram.com/africanfoodbskt/\r\n647-896-0641"
      },
      {
         "ID": "47",
         "NAME": "OUT OF THE BOX",
         "TYPE": "Community & Faith Centers",
         "LATITUDE": "43.7263381",
         "LONGITUDE": "-79.3043792",
         "ADDRESS": "1527 Victoria Park Ave",
         "POSTAL_CODE": "M1L 2N5",
         "CITY": "Scarborough, ON",
         "WEBSITE": "https://www.otbse.com/",
         "DESCRIPTION": "We are a social enterprise that provides construction opportunities with a mix of social development mainly for black youth in Toronto.",
         "CONTACT_INFO": "https://www.facebook.com/groups/411651639225066/\r\nhttps://www.instagram.com/out_of_thebox_socialenterprise/\r\n647.876.4567\r\na.bin@otbse.com"
      },
      {
         "ID": "48",
         "NAME": "DREAM NATION CHURCH",
         "TYPE": "Community & Faith Centers",
         "LATITUDE": "43.7382527",
         "LONGITUDE": "-79.5419623",
         "ADDRESS": "3210 Weston Road",
         "POSTAL_CODE": "M9M 2T4",
         "CITY": "North York, ON",
         "WEBSITE": "https://www.dreamnationcenter.org/",
         "DESCRIPTION": "We are a non-denominational Church, Pentecostal & Charismatic in our expression with a mandate of creating a family in which we are all united as One.",
         "CONTACT_INFO": "https://www.facebook.com/dreamnationtoronto/\r\nhttps://twitter.com/dreamnationc\r\nhttps://www.youtube.com/DreamNTV\r\nhttps://www.instagram.com/dreamnationchurch/\r\n1-855-4-DREAM-0"
      },
      {
         "ID": "54",
         "NAME": "CYCLE N' TONE",
         "TYPE": "Doctors, Health & Fitness",
         "LATITUDE": "43.8258482",
         "LONGITUDE": "-79.0565494",
         "ADDRESS": "1895 Clements Road UNIT 102",
         "POSTAL_CODE": "L1W 3V5",
         "CITY": "Pickering, ON",
         "WEBSITE": "https://cycleandtone.com/",
         "DESCRIPTION": "We have revolutionized the definition of working out by combining indoor cycling & boot camp classes with the hottest soca, dancehall, reggae tunes & more!",
         "CONTACT_INFO": "https://www.instagram.com/cyclentone/\r\nhttps://www.facebook.com/cyclentoneofficial/"
      },
      {
         "ID": "55",
         "NAME": "LEAVES OF MAGIC MORINGA",
         "TYPE": "Doctors, Health & Fitness",
         "LATITUDE": "43.6784589",
         "LONGITUDE": "-79.4871658",
         "ADDRESS": "380 Alliance Avenue",
         "POSTAL_CODE": "M6N 2H8",
         "CITY": "Toronto, ON",
         "WEBSITE": "https://leavesofmagic.com/",
         "DESCRIPTION": "Leaves of Magic is a herbal remedy brand that sells herbal teas, tea accessories and natural healing products. We specialize in moringa products.",
         "CONTACT_INFO": "leavesofmagic@gmail.com\r\nhttps://www.facebook.com/leavesofmagic/\r\nhttps://twitter.com/leavesofmagic\r\nhttps://www.instagram.com/leavesofmagic_/\r\n"
      },
      {
         "ID": "56",
         "NAME": "WORD OF MOUTH DENTISTRY",
         "TYPE": "Doctors, Health & Fitness",
         "LATITUDE": "43.6655628",
         "LONGITUDE": "-79.4138497",
         "ADDRESS": "800 Bathurst Street, Suite 503",
         "POSTAL_CODE": "M5R 3M8",
         "CITY": "Toronto, ON",
         "WEBSITE": "https://www.wordofmouthdentistry.ca/",
         "DESCRIPTION": "We provide the best care in a comfortable environment & our philosophy is to maintain existing dentistry while reducing the need for future dental work.",
         "CONTACT_INFO": "416-533-3712\r\nhttps://twitter.com/TDotDentist\r\nhttps://ca.linkedin.com/pub/dr-kenneth-montague/19/1b0/29b\r\nhttps://facebook.com/pages/Dr-Kenneth-Montague-and-Associates/115023781858639\r\nhttps://www.youtube.com/user/wordofmouthdentistry\r\nhttps://www.instagram.com/wordofmouthdentistry/\r\ninfo@wordofmouthdentistry.ca"
      },
      {
         "ID": "58",
         "NAME": "MOK TRAVEL & TOUR",
         "TYPE": "Travel, Auto & Other Services",
         "LATITUDE": "43.7647528",
         "LONGITUDE": "-79.4853644",
         "ADDRESS": "1183 Finch Avenue West, Suite #605",
         "POSTAL_CODE": "M3J 2G2",
         "CITY": "North York, ON",
         "WEBSITE": "https://moktravels.com/",
         "DESCRIPTION": "We specialize in providing travel & related services to all destinations around the world. We offer the lowest fare for your vacation, honeymoon or business trip.",
         "CONTACT_INFO": "1 4166310435\r\n1 4166310465\r\n1 8666100435\r\ninfo@moktravels.com"
      },
      {
         "ID": "59",
         "NAME": "GEC AUTO CUSTOMS",
         "TYPE": "Travel, Auto & Other Services",
         "LATITUDE": "43.6815827",
         "LONGITUDE": "-79.584086",
         "ADDRESS": "150 Skyway Avenue, Unit #3",
         "POSTAL_CODE": "M9W 4Y9",
         "CITY": "Etobicoke, ON",
         "WEBSITE": "https://gecautocustoms.ca/",
         "DESCRIPTION": "We specialize in all cars, trucks, SUVs in all makes and models. We provide you with the option of Mobile Service. We are now expanding our services to boats.",
         "CONTACT_INFO": "1-647-545-0733\r\n1-416-230-8606\r\nhttps://www.instagram.com/gecautocustoms/\r\ngecautocustoms@gmail.com"
      },
      {
         "ID": "60",
         "NAME": "NZURI BOOKS",
         "TYPE": "Education, Books & Black Authors",
         "LATITUDE": "43.695303",
         "LONGITUDE": "-79.5530296",
         "ADDRESS": "11 Wincott Dr",
         "POSTAL_CODE": "M9R 2R9",
         "CITY": "Etobicoke, ON",
         "WEBSITE": "https://www.nzuribooks.com/",
         "DESCRIPTION": "I write Afrocentric children's books such as \"Hey! Look At Me\" (a French bilingual pre-school book) & \"Nzingha The Great Warrior of Angola\" (an illustrated novel).",
         "CONTACT_INFO": "416-732-9100\r\nhttps://www.facebook.com/desree.crooks.nzuri.books\r\nhttps://twitter.com/DesreeCrooks28\r\nhttps://plus.google.com/u/0/115656854677393319251\r\nhttps://www.nzuribooks.com/feed/"
      },
      {
         "ID": "61",
         "NAME": "KNOWLEDGE BOOKSTORE",
         "TYPE": "Education, Books & Black Authors",
         "LATITUDE": "43.6816327",
         "LONGITUDE": "-79.7665118",
         "ADDRESS": "177 Queen St W",
         "POSTAL_CODE": "L6Y 1M5",
         "CITY": "Brampton, ON",
         "WEBSITE": "https://www.knowledgebookstore.com/",
         "DESCRIPTION": "We are an Afrocentric bookstore that sells African Canadian, African American, Caribbean & Children books. We also offer Black dolls, greeting cards, beauty products.",
         "CONTACT_INFO": "https://twitter.com/Knowledgebooks\r\nhttps://www.facebook.com/KnowledgeBookstore\r\nhttps://www.pinterest.com/knowledgebooks/\r\nhttps://plus.google.com/+KnowledgeBookstoreBrampton/about\r\nhttps://instagram.com/knowledgebookstore/\r\nhttps://www.youtube.com/channel/UCHbx5BV8I2OxlehB27NFTmw/about\r\n905-459-9875"
      },
      {
         "ID": "63",
         "NAME": "HY NOTES MUSIC ACADEMY",
         "TYPE": "Education, Books & Black Authors",
         "LATITUDE": "43.7475541",
         "LONGITUDE": "-79.7490986",
         "ADDRESS": "900 Peter Robertson Blvd Unit 14G and H",
         "POSTAL_CODE": "L6R1A2",
         "CITY": "Brampton, ON",
         "WEBSITE": "https://www.facebook.com/hynotesmusic/",
         "DESCRIPTION": "Come for music lessons! Chose from piano, vocals, drums, guitar, tutoring lessons, vocal coaching and much more.",
         "CONTACT_INFO": "(905) 793-2300\r\nhynotesmusicacademy@gmail.com\r\n"
      },
      {
         "ID": "66",
         "NAME": "HOPE CHRISTIAN MINISTRIES",
         "TYPE": "Community & Faith Centers",
         "LATITUDE": "43.7691227",
         "LONGITUDE": "-79.670204",
         "ADDRESS": "4316 Ebenezer Road",
         "POSTAL_CODE": "L6P 1S4 ",
         "CITY": "Brampton, ON",
         "WEBSITE": "https://www.hopecministries.com/",
         "DESCRIPTION": "All our members believe the Bible to be the sole source of faith & the absolute authority for human life. They have chosen to build their lives on the Word of God.",
         "CONTACT_INFO": "https://twitter.com/hopecministries\r\nhttps://www.youtube.com/channel/UCso41RzsYiyrAYdbkmEPA6A\r\nhttps://www.instagram.com/hopechristianministries/\r\nhttps://www.facebook.com/pages/category/Nonprofit-Organization/Hope-Christian-Ministries-195726640446329/\r\n905-487-4673 (Hope)\r\ninfo@hopecministries.com"
      },
      {
         "ID": "67",
         "NAME": "CCAH",
         "TYPE": "Community & Faith Centers",
         "LATITUDE": "43.4051817",
         "LONGITUDE": "-79.7209675",
         "ADDRESS": "2302 Bridge Rd",
         "POSTAL_CODE": "L6L 2G6",
         "CITY": "Oakville, ON",
         "WEBSITE": "https://www.ccah.ca/",
         "DESCRIPTION": "We are a non-profit organization that offers opportunities for volunteering, facilitates local networking & encourages participation for the communities in Halton region.",
         "CONTACT_INFO": "https://www.facebook.com/Canadian-Caribbean-Association-of-Halton-211418152224927/\r\nhttps://www.linkedin.com/company/canadian-caribbean-association-of-halton/\r\ninfo@ccah.ca\r\nhttps://www.youtube.com/channel/UCImHsxJLOkWVsUd_u_Hr2SQ/\r\n905-815-6184"
      },
      {
         "ID": "68",
         "NAME": "KINGDOM HOUSE CENTRE",
         "TYPE": "Community & Faith Centers",
         "LATITUDE": "43.6812564",
         "LONGITUDE": "-79.7899938",
         "ADDRESS": " 40 Holtby Ave, Unit 3A",
         "POSTAL_CODE": "L6X 2M1\r\n",
         "CITY": "Brampton, ON",
         "WEBSITE": "https://www.kingdomhouse.com/",
         "DESCRIPTION": "We know that regardless of one's position in life, every person is engaged in a life search to answer the questions of personal identity, purpose, destiny and potential.",
         "CONTACT_INFO": "905.459.5422\r\nhttps://www.twitter.com/KingdomHouseCC\r\nhttps://www.youtube.com/kingdomhouse\r\nhttps://www.facebook.com/kingdomhouse"
      },
      {
         "ID": "69",
         "NAME": "WINGS OF PASSION",
         "TYPE": "Community & Faith Centers",
         "LATITUDE": "43.733368",
         "LONGITUDE": "-79.8008677",
         "ADDRESS": "24 Kerwood Place",
         "POSTAL_CODE": "L6Z 1Y1",
         "CITY": "Brampton, ON",
         "WEBSITE": "https://www.wingsofpassion.ca/",
         "DESCRIPTION": "We are a non-denominational, Not-for-Profit Christ-Centered organization seeking to assist children with critical health and life threatening illnesses.",
         "CONTACT_INFO": "647-887-5574\r\nWINGSOFPASSION.CA@GMAIL.COM\r\nhttps://wingsofpassion.ca/\r\nhttps://www.facebook.com/wingsofpassion/\r\nhttps://www.youtube.com/user/sonador2005"
      },
      {
         "ID": "70",
         "NAME": "CARIFIKA CANADA",
         "TYPE": "Community & Faith Centers",
         "LATITUDE": "43.7412004",
         "LONGITUDE": "-79.6941439",
         "ADDRESS": "5 Nevets Rd, Unit 23",
         "POSTAL_CODE": "L6T 5T2",
         "CITY": "Brampton, ON",
         "WEBSITE": "https://www.carifikacanada.org/",
         "DESCRIPTION": "We are a non-profit organization bringing visibility to Black African & Caribbean people for success in all areas of life.",
         "CONTACT_INFO": "1-866-979-9583\r\nINFO@CARIFIKACANADA.ORG\r\nhttps://www.twitter.com/carifikacanada\r\nhttps://www.youtube.com/carifikacanada\r\nhttps://www.facebook.com/carifikacan/\r\nhttps://www.instagram.com/carifikacanada"
      },
      {
         "ID": "71",
         "NAME": "GRO FOR IT",
         "TYPE": "Travel, Auto & Other Services",
         "LATITUDE": "43.5136515",
         "LONGITUDE": "-79.883852",
         "ADDRESS": "13 Charles St, Unit 102",
         "POSTAL_CODE": "L9T 2G5",
         "CITY": "Mississauga, ON",
         "WEBSITE": "https://groforit.life/",
         "DESCRIPTION": "We offer houseplants, other plant related products, services & workshops. Are you ready to Gro? Join the journey. Embrace a plant filled life!‍‍‍",
         "CONTACT_INFO": "https://facebook.com/letsgroforit\r\nhttps://instagram.com/groforit\r\n905-636-0900\r\nletsgroforit@gmail.com"
      },
      {
         "ID": "73",
         "NAME": "Unique Support Services",
         "TYPE": "Travel, Auto & Other Services",
         "LATITUDE": "43.686593",
         "LONGITUDE": "-79.7610801",
         "ADDRESS": "41 Queen Street East, Suite 202",
         "POSTAL_CODE": "L6W 2A7",
         "CITY": "Brampton, ON",
         "WEBSITE": "https://www.uniquesupportservices.ca/",
         "DESCRIPTION": "For families and individuals with disabilities Unique Support Services provide support for persons who have Developmental Disorder ; Intellectual Challenge and Autism Spectrum Disorder",
         "CONTACT_INFO": "1-905-457-1116\r\ninfo@uniquesupportservices.ca\r\n1-844-299-00-99\r\n"
      },
      {
         "ID": "74",
         "NAME": "JEFFERY GYLES",
         "TYPE": "Real Estate & Home Services",
         "LATITUDE": "43.5181797",
         "LONGITUDE": "-79.8775473",
         "ADDRESS": "55 Ontario St Unit A5A STE B",
         "POSTAL_CODE": "L9T 2M3",
         "CITY": "Mississauga, ON",
         "WEBSITE": "https://www.jefferygyles.com/",
         "DESCRIPTION": "I offer personal attention, exceptional expertise & consistent counselling on all aspects of your real estate transaction making the process uncomplicated.",
         "CONTACT_INFO": "647.641.3839\r\njg@jefferygyles.com\r\nhttps://www.facebook.com/jefferygylesrealtor/\r\nhttps://www.instagram.com/jefferygyles/"
      },
      {
         "ID": "75",
         "NAME": "NEVILLE THOMPSON JR.",
         "TYPE": "Real Estate & Home Services",
         "LATITUDE": "43.6004425",
         "LONGITUDE": "-79.643434",
         "ADDRESS": "50 Village Centre Pl 100",
         "POSTAL_CODE": "L4Z1V9\r\n",
         "CITY": "Mississauga, ON",
         "WEBSITE": "https://mrtorontorealtor.searchrealty.co/",
         "DESCRIPTION": "We are a community-focused, future-facing real estate brokerage.We are committed to provide the best tools & technology to serve the needs of home buyers & sellers.",
         "CONTACT_INFO": "416-993-7653\r\nhttps://www.facebook.com/SearchRealtyCorp\r\nhttps://www.linkedin.com/company/search-realty-corp-\r\nhttps://www.pinterest.ca/searchrealty\r\nhttps://twitter.com/searchrealty\r\nhttps://instagram.com/searchrealty\r\nhttps://www.youtube.com/searchrealtycorp\r\n855-500-7653\r\nSearchMortgage.ca"
      },
      {
         "ID": "76",
         "NAME": "WOLE DARAMOLA",
         "TYPE": "Real Estate & Home Services",
         "LATITUDE": "43.7664087",
         "LONGITUDE": "-79.6792146",
         "ADDRESS": "15 Kirkhollow Drive",
         "POSTAL_CODE": "L6P 2V5",
         "CITY": "Brampton, ON",
         "WEBSITE": "https://wolehomes.com/",
         "DESCRIPTION": "I am providing excellent services for clients and customers in selling, buying, and leasing all over the Great Toronto Area (GTA).",
         "CONTACT_INFO": "1 (888) 993-2528\r\n1 (888) 993-2588\r\nwole@eclatrealty.ca\r\n(647) 654-9653\r\n"
      },
      {
         "ID": "77",
         "NAME": "ANTHONY BRYAN",
         "TYPE": "Real Estate & Home Services",
         "LATITUDE": "43.6090842",
         "LONGITUDE": "-79.7573499",
         "ADDRESS": "7145 West Credit Avenue, Building 1, Suite 100",
         "POSTAL_CODE": "L5N 6J7",
         "CITY": "Mississauga, ON",
         "WEBSITE": "https://www.anthonybryan.ca/",
         "DESCRIPTION": "When you work with me, you will receive a knowledgeable and professional real estate agent. You couldn't find a more dedicated, energetic or focused agent to represent you.",
         "CONTACT_INFO": "https://www.instagram.com/realestateab/\r\nhttps://www.facebook.com/Realestateab/\r\n289 654 7873\r\nRealEstateAB@AnthonyBryan.com"
      },
      {
         "ID": "78",
         "NAME": "PATRICK NJOKU",
         "TYPE": "Real Estate & Home Services",
         "LATITUDE": "43.605592",
         "LONGITUDE": "-79.652667",
         "ADDRESS": "30 Eglinton Ave. West Unit C12.",
         "POSTAL_CODE": "L5R 3E7",
         "CITY": "Mississauga, ON",
         "WEBSITE": "https://www.exquisitegtahomes.com/",
         "DESCRIPTION": "I specialize in investment properties, condos, lofts, residential resale & new construction. Call me for results that will move you!",
         "CONTACT_INFO": "patrick@e-gtahomes.com\r\n4169195582\r\n905-507-4776\r\nhttps://www.facebook.com/pnjoku3"
      },
      {
         "ID": "80",
         "NAME": "FILEDARIA INC",
         "TYPE": "Hair, Barbers & Beauty",
         "LATITUDE": "43.393903",
         "LONGITUDE": "-79.7148073",
         "ADDRESS": "116 Bronte Road",
         "POSTAL_CODE": "L6L 3C1",
         "CITY": "Oakville, ON",
         "WEBSITE": "https://filedaria.com/",
         "DESCRIPTION": "We are the solution to the frustrations of women with naturally curly & afro-textured hair. We offer you our time, skill & love & create a comfortable & relaxing experience.",
         "CONTACT_INFO": "905-825-0428\r\nhttps://www.instagram.com/filedaria/\r\nhttps://twitter.com/FiledariaSalon\r\nhttps://www.facebook.com/filedaria/\r\nsupport@filedaria.com"
      },
      {
         "ID": "81",
         "NAME": "GO + GLOW CO",
         "TYPE": "Hair, Barbers & Beauty",
         "LATITUDE": "43.6931178",
         "LONGITUDE": "-79.7707386",
         "ADDRESS": "7A-320 Main St. N, Suite #109",
         "POSTAL_CODE": "L6V 4A3",
         "CITY": "Brampton, ON",
         "WEBSITE": "https://www.goandglowco.ca/",
         "DESCRIPTION": "We are a Brampton based beauty brand supplying a prestigious line of cruelty-free colour cosmetics and vegan skincare for all skin types, tones and nationalities.",
         "CONTACT_INFO": "https://www.linkedin.com/company/goandglowco/\r\nhttps://twitter.com/goandglowco\r\nhttps://pinterest.com/goandglowco\r\nhttps://instagram.com/goandglowco\r\nhello@goandglowco.ca"
      },
      {
         "ID": "82",
         "NAME": "HAIR FLAIR BEAUTY CARE",
         "TYPE": "Hair, Barbers & Beauty",
         "LATITUDE": "43.5765385",
         "LONGITUDE": "-79.6556965",
         "ADDRESS": "790 Burnhamthorpe Rd. W, Unit #15",
         "POSTAL_CODE": "L5C 4G3",
         "CITY": "Mississauga, ON",
         "WEBSITE": "https://hairflairbeautycare.ca/",
         "DESCRIPTION": "We offer a comprehensive range of individually tailored hairdressing & beauty services in a tranquil boutique style setting.",
         "CONTACT_INFO": "1 905-273-3688\r\nhairflairbeautycare@live.com\r\nhttps://www.facebook.com/HairFlairBeautyCare"
      },
      {
         "ID": "85",
         "NAME": "TK NATURAL HAIR WIGS",
         "TYPE": "Hair, Barbers & Beauty",
         "LATITUDE": "43.5765385",
         "LONGITUDE": "-79.6556965",
         "ADDRESS": "51 Iron Block Drive",
         "POSTAL_CODE": "L7A 0K2",
         "CITY": "Brampton, ON",
         "WEBSITE": "https://www.facebook.com/tKNHWigs/",
         "DESCRIPTION": "We provide wigs and extensions that cater to naturally curly, coily and kinky hair. We sponsor wigs that help women and children affected by cancer and alopecia.",
         "CONTACT_INFO": "(416) 697-2395\r\nlinktr.ee/tknhwigs\r\ninfo.tknhwigs@gmail.com"
      },
      {
         "ID": "89",
         "NAME": "EnvironFocus Incorporated",
         "TYPE": "Business, Services & Technology",
         "LATITUDE": "43.6598286",
         "LONGITUDE": "-79.6032068",
         "ADDRESS": "205 – 2601 Matheson Boulevard East",
         "POSTAL_CODE": "L4W 5A8",
         "CITY": "Mississauga, ON",
         "WEBSITE": "https://www.environfocus.com/",
         "DESCRIPTION": "We are an Environmental consulting firm. We can help you with your Phase I Environmental Site Assessments and Sustainability Reporting needs. We can also work with you to improve your business sustainability profile to meet your environmental, social and economic bottom lines.",
         "CONTACT_INFO": "1 647 501 7741\r\n234 8181356287\r\ninfo@environfocus.com\r\nhttps://ca.linkedin.com/in/environbuzz-544b0942\r\nhttps://twitter.com/environbuzz\r\nhttps://www.facebook.com/EnvironBuzz/\r\n"
      },
      {
         "ID": "93",
         "NAME": "BOBBY'S PHOTOGRAPHY",
         "TYPE": "Media, Events & Entertainment",
         "LATITUDE": "43.7284625",
         "LONGITUDE": "-79.6414559",
         "ADDRESS": "7497 Wrenwood Crescent",
         "POSTAL_CODE": "L4T 2V8",
         "CITY": "Mississauga, ON",
         "WEBSITE": "https://www.bobbysphotography.com/",
         "DESCRIPTION": "We do wedding photography, portrait photography, pregnancy photography, photography lessons, daycare & school photography, retouching photography.",
         "CONTACT_INFO": "bobby102@bobbysphotography.com\r\nhttps://www.facebook.com/bobbybarrocks\r\nhttps://www.linkedin.com/in/bobby-barrocks-27796a1\r\nhttps://instagram.com/bobb9054\r\n905-672-0005\r\n647-200-8541\r\n"
      }
   ],
   "virtualBusinesses": [
      {
         "ID": "1",
         "NAME": "Fullerton Fine Art",
         "TYPE": "Art, Artists & Art Galleries",
         "CITY": "Ajax, ON",
         "WEBSITE": "https://www.fullfineart.com/",
         "DESCRIPTION": "Georgia Fullerton is a Canadian art-based business that markets emotionally-rich original fine art paintings and reproductions sold within Canada and internationally.",
         "CONTACT_INFO": "https://www.instagram.com/fullfineart/\r\nhttps://www.facebook.com/georgiafullertonart/"
      },
      {
         "ID": "3",
         "NAME": "Mfalconer",
         "TYPE": "Art, Artists & Art Galleries",
         "CITY": "Toronto, ON",
         "WEBSITE": "https://www.mfalconer.com/",
         "DESCRIPTION": "Melissa Falconer is a self-taught visual artist from Toronto. As a Black artist, she has identified with the underrepresentation of People of Color in the art industry. By creating what she calls “Black Pop Art”, she hopes to fill this void by creating a new source of art from which people like her can use to express themselves.",
         "CONTACT_INFO": "https://www.youtube.com/channel/UCt0W0JGf6RFbeS7iZCbDGkA \r\nhttps://twitter.com/MelissaFalconer\r\nhttps://www.instagram.com/melissafalconer/"
      },
      {
         "ID": "4",
         "NAME": "Afrikima Art",
         "TYPE": "Art, Artists & Art Galleries",
         "CITY": "Toronto, ON",
         "WEBSITE": "https://antonia-pascoal.pixels.com/",
         "DESCRIPTION": "Antonia is a talented artist hailing from the Republic of Angola. Most of her work is in the fine art space, using acrylic on canvas and oil."
      },
      {
         "ID": "5",
         "NAME": "ArtxnaChauntae",
         "TYPE": "Art, Artists & Art Galleries",
         "CITY": "Toronto, ON",
         "WEBSITE": "https://www.artxnachauntae.com/",
         "DESCRIPTION": "I enjoy bringing my work to life use bold and bright colours. I create original pieces, prints and take commissions.",
         "CONTACT_INFO": "https://twitter.com/artxnachauntae\r\nhttps://www.facebook.com/artxnachauntae/\r\nhttps://www.instagram.com/artxnachauntae/?hl=en"
      },
      {
         "ID": "6",
         "NAME": "R. Thomas Art",
         "TYPE": "Art, Artists & Art Galleries",
         "CITY": "Toronto, ON",
         "WEBSITE": "https://www.rthomasart.ca/",
         "DESCRIPTION": "Reynold Thomas is a Visual Artist whose work shows a perfect mix of exquisite beauty and raw strength. His art is marked by distinct colour selections and bridges abstract and figurative art to capture on canvas what transcends reality.",
         "CONTACT_INFO": "https://www.instagram.com/renzzzart/\r\nhttps://www.facebook.com/tour.theabstractmind/\r\nhttps://www.linkedin.com/in/reynoldthomas/\r\nreynoldcthomas@gmail.com"
      },
      {
         "ID": "7",
         "NAME": "ArtBySaby",
         "TYPE": "Art, Artists & Art Galleries",
         "CITY": "Toronto, ON",
         "WEBSITE": "https://artbysaby.com/",
         "DESCRIPTION": "Born and raised in France, Saby decided to challenge herself professionally by moving to Toronto in June 2014.  Despite the language barrier, culture difference, and being far from her family and friends, it was in painting that she found comfort and a way to let it go.  ",
         "CONTACT_INFO": "https://www.facebook.com/ArtBySaby974/\r\nhttps://www.instagram.com/saby.974/\r\nsaby974artwork@gmail.com"
      },
      {
         "ID": "8",
         "NAME": "Karen Miranda Augustine",
         "TYPE": "Art, Artists & Art Galleries",
         "CITY": "Toronto, ON",
         "WEBSITE": "https://karenmirandaaugustine.com/",
         "DESCRIPTION": "Karen Miranda Augustine is a Canadian mixed-media artist and writer whose works have exhibited in Canada, the US, Scotland, and Haiti.",
         "CONTACT_INFO": "kma@karenmirandaaugustine.com\r\n"
      },
      {
         "ID": "9",
         "NAME": "Joy Richu",
         "TYPE": "Art, Artists & Art Galleries",
         "CITY": "Toronto, ON",
         "WEBSITE": "https://joyrichu.com/about-me/",
         "DESCRIPTION": "I grew up in Kenya, telling stories on paper, radio, as well as on stage. This has influenced my story-driven approach to design!",
         "CONTACT_INFO": "joy@joyrichu.com\r\nhttps://www.facebook.com/madebyjoyrichu/\r\nhttps://twitter.com/madebyjoyrichu\r\nhttps://www.instagram.com/joyrichu/\r\nhttps://vimeo.com/user49323668"
      },
      {
         "ID": "10",
         "NAME": "SyrusmMarcusWare",
         "TYPE": "Art, Artists & Art Galleries",
         "CITY": "Toronto, ON",
         "WEBSITE": "https://syrusmarcusware.com/",
         "DESCRIPTION": "Syrus Marcus Ware is a Vanier Scholar, a visual artist, community activist, researcher, youth-advocate and educator."
      },
      {
         "ID": "13",
         "NAME": "KinetixFitness",
         "TYPE": "Doctors, Health & Fitness",
         "CITY": "Scarborough, ON",
         "WEBSITE": "https://kinetixfitness.ca/",
         "DESCRIPTION": "Shawn Jeffers is both a practicing Athletic Therapist (CAT(C)) and Strength & Conditioning Specialist (NSCA). Shawn combines his specialties to create training programs that help individuals achieve movement quality within a personal or high performance training capacity.",
         "CONTACT_INFO": "(647) 547-9943\r\nShawn@kinetixfitness.ca"
      },
      {
         "ID": "15",
         "NAME": "CORNERSTONE SERVICES",
         "TYPE": "Doctors, Health & Fitness",
         "CITY": "Scarborough, ON",
         "WEBSITE": "https://www.cornerstonefamilyservices.ca/",
         "DESCRIPTION": "Cornerstone, the foundation stone - the first stone set in the construction of a masonry foundation. The cornerstone is important, all other stones will be set in reference to this stone, thus determining the position and integrity of the entire structure. The cornerstone is essential and indispensable.",
         "CONTACT_INFO": "info@cornerstonefamilyservices.ca\r\n905-497-4388"
      },
      {
         "ID": "17",
         "NAME": "TRANSCEND BY JEX",
         "TYPE": "Restaurants, Bakeries & Grocery",
         "CITY": "Mississauga, ON",
         "WEBSITE": "https://www.transcendbyjex.com/",
         "DESCRIPTION": "Chef Jex Paisley vision for his career has always been to combine simple ingredients and flavors from across the world to create exotic, modern Culinary Masterpieces.",
         "CONTACT_INFO": "(416) 908-2074\r\nJex@transcendbyjex.com\r\nhttps://instagram.com/transcendbyjex\r\nhttps://www.facebook.com/Transcend-by-jex-966847480027813/?ref=bookmarks\r\nhttps://twitter.com/TranscendbyJEX"
      },
      {
         "ID": "18",
         "NAME": "PIRANHA SEASONINGS",
         "TYPE": "Restaurants, Bakeries & Grocery",
         "CITY": "Brampton, ON",
         "WEBSITE": "https://www.facebook.com/Piranha-Seasonings-111584340325118/",
         "DESCRIPTION": "We are Piranha Seasonings a Canadian based in Brampton, ON powered by Jamaicans.",
         "CONTACT_INFO": "https://www.facebook.com/Piranha-Seasonings-111584340325118/"
      },
      {
         "ID": "22",
         "NAME": "TOP CLASS APPRAISAL",
         "TYPE": "Real Estate & Home Services",
         "CITY": "Markham, ON",
         "WEBSITE": "https://www.topclassappraisal.ca/",
         "DESCRIPTION": "We only perform to the highest ethical standards possible.  We don't do assignments on contingency fees.  That is, we don't agree to do an appraisal report and get paid only if the loan closes.  We don't do assignments on percentage fees. ",
         "CONTACT_INFO": "info@topclassappraisal.ca\r\n416-569-9792 "
      },
      {
         "ID": "23",
         "NAME": "Live The North American Connection",
         "TYPE": "Real Estate & Home Services",
         "CITY": "Markham, ON",
         "WEBSITE": "https://www.livethenorthamericanconnection.com/",
         "DESCRIPTION": "Tracey Campbell came into residential real estate from the Corcoran Group in 2008 after working in the corporate section of New York City in online sales. She later moved to Toronto, Canada to raise her son and continues to maintain strong professional connections to the brokerage. Tracey is service-driven and focused on being resourceful and helping customers get the results they need.",
         "CONTACT_INFO": "1-647-216-9179\r\nthena.connection@gmail.com"
      },
      {
         "ID": "24",
         "NAME": "Empire MGMT",
         "TYPE": "Travel, Auto & Other Services",
         "CITY": "Hamilton, ON",
         "WEBSITE": "https://www.empiremgmt.ca/",
         "DESCRIPTION": "Jayevan Jason Edison Foster was born and raised in Hamilton, Ontario also known as Steel City, Tiger Town and The Hammer to name a few. Jayevan is a proud Hamiltonian who enjoys everything his great city has to offer including the thriving sports scene both amateur and professional. Hamilton is a cultural hub full of creative minds and not to mention the over 100 waterfalls that are scattered throughout the city.",
         "CONTACT_INFO": "905-516-8855\r\nfosterjayevan@gmail.com\r\nhttps://facebook.com/empiremgmt\r\nhttps://instagram.com/empiremgmt\r\nhttps://twitter.com/empire_mgmt"
      },
      {
         "ID": "25",
         "NAME": "ISAIAH III",
         "TYPE": "Shopping",
         "CITY": "Hamilton, ON",
         "WEBSITE": "https://www.isaiahiii.com/",
         "DESCRIPTION": "ISAIAH III (Aaron Parry) is a 20 year old artist and clothing designer who began ISAIAH III in 2019. His works serves to celebrate BLACK History, Culture & Excellence so that others can represent their communities in style.",
         "CONTACT_INFO": "INSTAGRAM: @isaiahiii\r\nFACEBOOK: @isaiahiiiart"
      },
      {
         "ID": "26",
         "NAME": "LAFUHQE",
         "TYPE": "Shopping",
         "CITY": "Hamilton, ON",
         "WEBSITE": "https://lafuhqe.ca/",
         "DESCRIPTION": "Lafuhqe is a black-owned, feminine hygiene brand. We make products for women who are fierce in their femininity. Women who dominate their space, say what they feel and do what they want. Our products are all natural and will leave you feeling clean, confident and in control. Pussy runs the world but lafuhqe pussy is a first class trip through the Universe!",
         "CONTACT_INFO": "https://twitter.com/lafuhqe\r\nhttps://facebook.com/lafuhqe\r\nhttps://instagram.com/lafuhqe\r\nhttps://snapchat.com/add/lafuhqe"
      },
      {
         "ID": "27",
         "NAME": "MAGICAL & SPIRITUAL GIFTS",
         "TYPE": "Shopping",
         "CITY": "Hamilton, ON",
         "WEBSITE": "https://www.magicalspiritualgifts.com/",
         "DESCRIPTION": "Magical & Spiritual Gifts your one stop shop and prime source for all your Spiritual, Religious, Occult and New Age Products As well as Spiritual Gifts.  \r\nOur supplies and ingredients are of the highest quality and are tried and true.",
         "CONTACT_INFO": "226-552-0727\r\nmagicalspiritualgifts@gmail.com\r\nhttps://www.facebook.com/MagicalSpiritualGifts\r\nhttps://www.youtube.com/channel/UCOM-MhkFIb0UFkLi7T2yHXQ?view_as=subscriber\r\nhttps://www.instagram.com/magical.spiritual/"
      },
      {
         "ID": "28",
         "NAME": "IONIC COILS STUDIO",
         "TYPE": "Hair, Barbers & Beauty",
         "CITY": "Hamilton, ON",
         "WEBSITE": "https://www.naturalhairsolutions.org/",
         "DESCRIPTION": "We are in the hair restoration business using a holistic approach. Our ionic technology breaks up water particles, leaving the hair hydrated & frizz-free.",
         "CONTACT_INFO": "https://www.facebook.com/naturalhairsolutions.org\r\nhttps://twitter.com/loveyourcurlz\r\nhttps://www.instagram.com/ionic_coils/\r\nhttps://www.linkedin.com/feed/\r\nrestoringyournaturalhairitage@gmail.com"
      },
      {
         "ID": "31",
         "NAME": "DIVERSITY KIDZ",
         "TYPE": "Community & Faith Centers",
         "CITY": "Markham, ON",
         "WEBSITE": "https://diversitykidz.org/",
         "DESCRIPTION": "We are a non-profit organization dedicated to increasing the representation of racialized & marginalized people in children’s products, including toys & books.",
         "CONTACT_INFO": "https://www.facebook.com/diversityisnormal\r\nhttps://twitter.com/DiversityKidz\r\nhttps://www.instagram.com/diversitykidz\r\nhttps://www.pinterest.com/diversitykidz\r\nhttps://www.linkedin.com/company/diversitykidz"
      },
      {
         "ID": "32",
         "NAME": "DR. ALISIA YOUNG ND",
         "TYPE": "Doctors, Health & Fitness",
         "CITY": "Ajax, ON",
         "WEBSITE": "https://alisiayoung.com/",
         "DESCRIPTION": "I am a Naturopathic Doctor with areas of focus including healthy fat loss, diabetes management, cardiovascular support, mood regulation, as well as seasonal care.",
         "CONTACT_INFO": "(416)662-9714\r\nsupport@alisiayoung.com\r\nhttps://www.instagram.com/alisia.young"
      },
      {
         "ID": "35",
         "NAME": "MUSLICHIYAT",
         "TYPE": "Business, Services & Technology",
         "CITY": "North York, ON",
         "WEBSITE": "https://muslichiyat.wordpress.com/",
         "DESCRIPTION": "F. J. Al-salama is the founder of Muslichiyat; a business built for my kids who motivate my creativity to come to life. A business aimed to reach out to the community with a strong built intention to inspire one soul at a time; a mission that I have taken on with the ability to create a better you while bettering myself in every step of the way.",
         "CONTACT_INFO": "muslichiyat@gmail.com"
      },
      {
         "ID": "37",
         "NAME": "PAINT WITH CHIKA OH",
         "TYPE": "Art, Artists & Art Galleries",
         "CITY": "Scarborough, ON",
         "WEBSITE": "https://www.facebook.com/paintwithchikaoh-111896430297135/",
         "DESCRIPTION": "I offer beginner paint tutorials. Join me & take an evening off to create & inspire. Follow along with me, as I guide you through the demo painting of the evening.",
         "CONTACT_INFO": "https://m.me/111896430297135\r\nhttps://www.instagram.com/chika_oh\r\nhttps://www.instagram.com/Paintwithchikaoh\r\n"
      },
      {
         "ID": "40",
         "NAME": "KOFI'S ART",
         "TYPE": "Art, Artists & Art Galleries",
         "CITY": "North York, ON",
         "WEBSITE": "https://www.facebook.com/kofisart/",
         "DESCRIPTION": "I create vibrant warm & dynamic pieces of art with the use of free brush strokes, in depicting narratives of black love & beauty. I also do art workshops.",
         "CONTACT_INFO": "https://www.instagram.com/kofis_art\r\n"
      },
      {
         "ID": "44",
         "NAME": "Leek Productions",
         "TYPE": "Art, Artists & Art Galleries",
         "CITY": "Toronto, ON",
         "WEBSITE": "https://leekprod.ca/",
         "DESCRIPTION": "Leek Productions is a creative design company that specializes in film, photo, video, print and interactive media creation. We work with agencies, artists, businesses, independent productions and organizations to create gorgeous, effective visual media.",
         "CONTACT_INFO": "https://facebook.com/leekprod/\r\ninfo@leekprod.ca\r\nhttps://www.instagram.com/leekprod/"
      },
      {
         "ID": "49",
         "NAME": "HELPING HANDS",
         "TYPE": "Community & Faith Centers",
         "CITY": "Toronto, ON",
         "WEBSITE": "https://helpinghandsapp.com/",
         "DESCRIPTION": "We are a platform that allows youth to find meaningful & suitable volunteer/leadership opportunities & more while showcasing their experience.",
         "CONTACT_INFO": "https://www.instagram.com/helpinghandsapp\r\nhttps://twitter.com/helpinghands\r\nhttps://www.facebook.com/helphandsapp\r\nhttps://www.linkedin.com/company/helpinghandsapp/\r\nhttps://helpinghandsapp.com/#mailgo"
      },
      {
         "ID": "50",
         "NAME": "YAMZ VEGAN FOOD",
         "TYPE": "Restaurants, Bakeries & Grocery",
         "CITY": "Toronto, ON",
         "WEBSITE": "https://www.facebook.com/yamzvegan",
         "DESCRIPTION": "We offer all organic, vegan food made with love in Toronto. We make delicious patties, wraps and plates using ingredients sourced locally and seasonally.",
         "CONTACT_INFO": "647-785 9269"
      },
      {
         "ID": "51",
         "NAME": "THE ART OF CATERING",
         "TYPE": "Restaurants, Bakeries & Grocery",
         "CITY": "Toronto, ON",
         "WEBSITE": "https://theartofcatering.com/",
         "DESCRIPTION": "We provide 5 star hospitality of service, presentation, quality and friendliness in a relaxed and comfortable environment catering to the multi-cultural community.",
         "CONTACT_INFO": "https://twitter.com/ChefSelwyn\r\nhttps://www.facebook.com/theartofcateringtoronto\r\nhttps://www.pinterest.com/artofcatering/\r\n905 619 1059"
      },
      {
         "ID": "52",
         "NAME": "CHIC PEAS VEG CUISINE",
         "TYPE": "Restaurants, Bakeries & Grocery",
         "CITY": "Toronto, ON",
         "WEBSITE": "https://www.chicpeasveg.com/",
         "DESCRIPTION": "We cater delicious and nutritious vegan cuisine infused with East African and international herbs and spices and offer adult cooking classes.",
         "CONTACT_INFO": "647-207-7395\r\ninfo@chicpeasveg.com\r\nhttps://www.facebook.com/chicpeasveg/\r\nhttps://www.instagram.com/chicpeasveg/"
      },
      {
         "ID": "53",
         "NAME": "DANIELA GOODE",
         "TYPE": "Doctors, Health & Fitness",
         "CITY": "Toronto, ON",
         "WEBSITE": "https://www.danielagoode.com/",
         "DESCRIPTION": "My areas of practice include Thai Massage, Personal Training, Corporate Wellness, Group Exercise, Fitness Education, Wellness Workshops and Retreats.",
         "CONTACT_INFO": "info@danielagoode.com\r\n647 977 5374\r\nhttps://twitter.com/danielagoode\r\nhttps://instagram.com/danielagoode\r\nhttps://www.facebook.com/daniela.s.goode"
      },
      {
         "ID": "57",
         "NAME": "TESLASINE",
         "TYPE": "Travel, Auto & Other Services",
         "CITY": "Toronto, ON",
         "WEBSITE": "https://www.teslasine.ca/",
         "DESCRIPTION": "We are Canada’s first green luxurious transportation service. Our vehicles are all electric Tesla models with no emissions. We are always charged up and ready to go.",
         "CONTACT_INFO": "416-389-4321\r\ninfo@teslasine.ca\r\nhttps://instagram.com/Teslasine\r\nhttps://facebook.com/Teslasine\r\nhttps://twitter.com/Teslasine\r\nhttps://linkedin.com/Teslasine"
      },
      {
         "ID": "62",
         "NAME": "ELITE SPEED",
         "TYPE": "Education, Books & Black Authors",
         "CITY": "Mississauga, ON",
         "WEBSITE": "https://www.facebook.com/EliteSpeed_OLY-305527579941969/",
         "DESCRIPTION": "We are a non-profit organization that will empower, guide, educate and progress our athletes through physical, mental and social development.",
         "CONTACT_INFO": "m.me/305527579941969\r\n"
      },
      {
         "ID": "64",
         "NAME": "MIA'S WORLD",
         "TYPE": "Education, Books & Black Authors",
         "CITY": "Mississauga, ON",
         "WEBSITE": "https://www.miasworlds.com/",
         "DESCRIPTION": "This colourful picture book packs an emotional significant message making it okay to be in a co-parenting situation. It outlines Mia getting the opportunity to have TWO homes and enjoying both.",
         "CONTACT_INFO": "victoriadaley@hotmail.com\r\nhttps://www.facebook.com/MommyLivesHereDaddyLivesThere/\r\nhttps://www.instagram.com/mommylivesheredaddylivesthere/"
      },
      {
         "ID": "65",
         "NAME": "S4E Academy",
         "TYPE": "Education, Books & Black Authors",
         "CITY": "Mississauga, ON",
         "WEBSITE": "https://www.s4eacademy.com/",
         "DESCRIPTION": "S4E means \"Success for Everyone\" we provide tutoring services in conjunction with academic counseling to help students navigate successfully from middle school to university. We help students identify their future goals based on their skills and passions to ensure longterm success. We are trying to level the playing field and give everyone the opportunity to reach their full potential.",
         "CONTACT_INFO": "s4eacademy1@gmail.com\r\n(416) 300-7119\r\n"
      },
      {
         "ID": "72",
         "NAME": "Sole Refine",
         "TYPE": "Travel, Auto & Other Services",
         "CITY": "Mississauga, ON",
         "WEBSITE": "https://solerefine.ca/",
         "DESCRIPTION": "At Sole Refine, we extend the lifespan of your shoes by offering extensive detailing and cleaning to any shoe style from dress, casual, sneakers and even boots. No matter the age, the Sole Refine touch gives your shoes a brand new “out the box” look.",
         "CONTACT_INFO": "https://www.instagram.com/p/CFLFucKJRN3/\r\n"
      },
      {
         "ID": "79",
         "NAME": "LISA CAMPBELL",
         "TYPE": "Real Estate & Home Services",
         "CITY": "Mississauga, ON",
         "WEBSITE": "https://lisacampbellhomes.com/",
         "DESCRIPTION": "Whether you are a first time home buyer, looking to sell or an experienced investor, we can provide you with complete real estate solutions.",
         "CONTACT_INFO": "lcampbellhomes@gmail.com\r\n(416) 876-0873\r\n"
      },
      {
         "ID": "83",
         "NAME": "SHANSHAR",
         "TYPE": "Hair, Barbers & Beauty",
         "CITY": "Brampton, ON",
         "WEBSITE": "https://www.shanshar.com/",
         "DESCRIPTION": "Our main goal is to WOW you by providing you with high-quality products & services. We offer kids' clothes, décor, beauty & hair care products. They are all fabulous for less.",
         "CONTACT_INFO": "https://www.facebook.com/shansharcanada/\r\nhttps://twitter.com/ShanSharbeauty\r\nhttps://www.instagram.com/shansharbeauty/\r\nhttps://studio.youtube.com/channel/UCsG0NBp9-1mtKBdkUe99l0g/videos/upload?filter=%5B%5D&sort=%7B%22columnType%22%3A%22date%22%2C%22sortOrder%22%3A%22DESCENDING%22%7D\r\nINFO@SHANSHAR.CA \r\n"
      },
      {
         "ID": "84",
         "NAME": "REAL NATURELLE",
         "TYPE": "Hair, Barbers & Beauty",
         "CITY": "Brampton, ON",
         "WEBSITE": "https://realnaturelle.com/",
         "DESCRIPTION": "Our mission is to provide our clients with natural, healthy and affordable hair & skin products that improve the overall look, feel and health of all skin and hair types.",
         "CONTACT_INFO": "1-844-REAL-323 (1-844-732-5323)\r\ninfo@realnaturelle.com\r\nhttps://www.facebook.com/realnaturelle\r\nhttps://instagram.com/realnaturelle_\r\nhttps://twitter.com/realnaturelle"
      },
      {
         "ID": "86",
         "NAME": "PASSION HAIR EXTENSIONS",
         "TYPE": "Hair, Barbers & Beauty",
         "CITY": "Brampton, ON",
         "WEBSITE": "https://passionhair10.wixsite.com/passionhairsales",
         "DESCRIPTION": "We are a trendsetting Online Hair Extensions Store, offering our first-rate products to shoppers from the comfort of their own homes.",
         "CONTACT_INFO": "passionhair10@gmail.com\r\n"
      },
      {
         "ID": "87",
         "NAME": "LAVISH VANITY",
         "TYPE": "Hair, Barbers & Beauty",
         "CITY": "Mississauga, ON",
         "WEBSITE": "https://lavishvanity.ca/",
         "DESCRIPTION": "We offer hair, nails & makeup services. Our brand is highly recognized & trusted by beauty professionals, hairstylists, lash technicians & makeup artists.",
         "CONTACT_INFO": "https://facebook.com/lavishvanity\r\nhttps://twitter.com/bhaaaby_brown\r\nhttps://instagram.com/lavishvanity_\r\nhttps://www.snapchat.com/add/bhaaaby_brown\r\nhttps://www.youtube.com/gracebabatundee\r\nlavishvanity@hotmail.com\r\n"
      },
      {
         "ID": "88",
         "NAME": "HOUSE OF ELITE",
         "TYPE": "Hair, Barbers & Beauty",
         "CITY": "Brampton, ON",
         "WEBSITE": "https://www.facebook.com/House-of-Elite-181880665729028/",
         "DESCRIPTION": "We specialize in natural hair & proper hair care. We also offer other protective styles such as: sew ins, crochet & hair units.",
         "CONTACT_INFO": "4167882032\r\nContact House of Elite on Messenger\r\nm.me/181880665729028"
      },
      {
         "ID": "90",
         "NAME": "TOSIN PHOTOGRAPHY",
         "TYPE": "Media, Events & Entertainment",
         "CITY": "Brampton, ON",
         "WEBSITE": "https://www.facebook.com/Tosin-Photography-226147020847312/",
         "DESCRIPTION": "I am a photographer specializing in fashion & glamour. I also shoot weddings, parties, events, portfolios, portraits and one-on-one photo sessions.",
         "CONTACT_INFO": "(647) 271-2386\r\ntosinphotography@gmail.com"
      },
      {
         "ID": "91",
         "NAME": "CAPTURED BY SHANI",
         "TYPE": "Media, Events & Entertainment",
         "CITY": "Mississauga, ON",
         "WEBSITE": "https://www.capturedbyshani.com/",
         "DESCRIPTION": "I am specialized in newborn, maternity & families. I would love the opportunity to meet you & photograph you the way you’ve always dreamed of being photographed!",
         "CONTACT_INFO": "https://www.facebook.com/477129812306852\r\nhttps://www.instagram.com/capturedbyshani\r\nhttps://twitter.com/capturedbyshani\r\n416.554.2235\r\ncapturedbyshani@gmail.com"
      },
      {
         "ID": "92",
         "NAME": "EVENT SPECIALISTS",
         "TYPE": "Media, Events & Entertainment",
         "CITY": "Brampton, ON",
         "WEBSITE": "https://www.eventspecialists.ca/",
         "DESCRIPTION": "We collaborate with organizations to produce relevant educational conferences & events that are designed to engage & generate revenue.",
         "CONTACT_INFO": "hello@eventspecialists.ca\r\n1.647.693.3444\r\nmanager@eventspecialists.ca "
      },
      {
         "ID": "94",
         "NAME": "Onward Print",
         "TYPE": "Art, Artists & Art Galleries",
         "CITY": "Mississauga, ON",
         "WEBSITE": "https://www.instagram.com/onwardprint/",
         "DESCRIPTION": "My name is Flavia Idufashe; born and raised in Rwanda. I am a visual artist that specializes in illustration. I decided to start Onward Print to sell some of my illustration but also as a getaway from work and school.",
         "CONTACT_INFO": "https://www.instagram.com/onwardprint/"
      },
      {
         "ID": "95",
         "NAME": "Hills Collectibles",
         "TYPE": "Art, Artists & Art Galleries",
         "CITY": "Brampton, ON",
         "WEBSITE": "https://www.hillscollectibles.com/",
         "DESCRIPTION": "Hills Collectibles is a premier vintage and antique online store. Our tribal art collection features artifacts from southern Africa.",
         "CONTACT_INFO": "info@hillscollectibles.com\r\nhttps://www.facebook.com/pg/HillsCollect\r\nhttps://twitter.com/HillsCollects\r\nhttps://ca.linkedin.com/in/hillscollects\r\n"
      },
      {
         "ID": "96",
         "NAME": "Joseph Osei Bonsu",
         "TYPE": "Art, Artists & Art Galleries",
         "CITY": "Mississauga, ON",
         "WEBSITE": "https://www.joeoseibonsu.com/",
         "DESCRIPTION": "Illustrator/Graphic Artists! Co-Founder of Heroes Of The World Inc.",
         "CONTACT_INFO": "https://www.facebook.com/theartofjoeoseibonsu/\r\nhttps://www.instagram.com/jayoh83\r\nhttps://www.twitter.com/jay_oh\r\nhttps://www.theheroesoftheworld.com/\r\n"
      },
      {
         "ID": "97",
         "NAME": "THE DAPPER GENTLEMAN",
         "TYPE": "Shopping",
         "CITY": "Brampton, ON",
         "WEBSITE": "https://www.thedappergentleman.ca/",
         "DESCRIPTION": "We specialize in custom business & formal-wear. With countless styling options, anything you choose becomes synonymous to you. We look forward to serving you.",
         "CONTACT_INFO": "(437) 925-6557\r\nhttps://facebook.com/thedapgent\r\nhttps://instagram.com/thedapper.gentleman\r\nnicholas@thedappergentleman.ca\r\n"
      },
      {
         "ID": "98",
         "NAME": "SHAKARAH JEWELRY",
         "TYPE": "Shopping",
         "CITY": "Brampton, ON",
         "WEBSITE": "https://www.shakarahjewelryco.com/",
         "DESCRIPTION": "We pride ourselves on handcrafting beautiful jewelry & accessories. Each piece is created from a place of thankfulness & gratitude.",
         "CONTACT_INFO": "orders@shakarahjewelryco.com\r\nhttps://www.facebook.com/shakarahjewelryco\r\nhttps://instagram.com/shakarahjewelryco\r\n"
      },
      {
         "ID": "99",
         "NAME": "I TRAIN. I WIN.",
         "TYPE": "Shopping",
         "CITY": "Brampton, ON",
         "WEBSITE": "https://itrainiwin.com/",
         "DESCRIPTION": "We are more than a clothing brand, we are a movement to empower individuals that have goals, dreams & determination. We all are training to reach to a next level.",
         "CONTACT_INFO": "https://instagram.com/itrainiwn\r\nhttps://itrainiwin.com/pages/facebook.com/itrainiwin\r\n"
      },
      {
         "ID": "100",
         "NAME": "SANDRA BREWSTER",
         "TYPE": "Art, Artists & Art Galleries",
         "CITY": "Toronto, ON",
         "WEBSITE": "https://sandrabrewster.com/about/",
         "DESCRIPTION": "Sandra Brewster is a Torontonian artist whose work is engaging many themes that grapple with notions of identity, representation and memory.",
         "CONTACT_INFO": "info@georgiascherman.com\r\n"
      },
      {
         "ID": "101",
         "NAME": "Natia lemay Art",
         "TYPE": "Art, Artists & Art Galleries",
         "CITY": "Toronto, ON",
         "WEBSITE": "https://www.natialemay.com/",
         "DESCRIPTION": "Portrait ​artist specializing in black representation.  I look to explore the impact that myth and cultural hegemony has had on our identity and the resulting internalized and systemic racism.",
         "CONTACT_INFO": "Natia.lemay@hotmail.ca\r\n647-861-5109\r\nhttps://www.instagram.com/natialemayart/\r\n"
      },
      {
         "ID": "102",
         "NAME": "SNR Promotional Products",
         "TYPE": "Business, Services & Technology",
         "CITY": "Brampton, ON",
         "WEBSITE": "https://www.snrpromotions.com/",
         "DESCRIPTION": "Looking for promotional products? You've come to the right place! Whether you are looking for a specific item or just browsing for ideas, our site is your one-stop source.",
         "CONTACT_INFO": "(647) 210-0311\r\nInfo@snrpromotions.com\r\nhttps://www.facebook.com/snrpromotionalproducts/\r\nhttps://www.instagram.com/snr_promotional_products"
      },
      {
         "ID": "103",
         "NAME": "NOLA Designs",
         "TYPE": "Business, Services & Technology",
         "CITY": "Mississauga, ON",
         "WEBSITE": "https://www.noladesigns.ca/",
         "DESCRIPTION": "I'm an interior designer helping female-owned small business in the GTA take their retail vision to the next level. I help them pull off a store design that elevates their image and brand, and gives them a return on their investment.",
         "CONTACT_INFO": "info@noladesigns.ca\r\nhttps://www.facebook.com/noladesigns1/\r\nhttps://www.pinterest.ca/noladesigns_/\r\nhttps://www.instagram.com/noladesigns_/"
      },
      {
         "ID": "104",
         "NAME": "Ancient Herbal Health",
         "TYPE": "Shopping",
         "CITY": "Brampton, ON",
         "WEBSITE": "https://ancientherbalhealth.com",
         "DESCRIPTION": "Live Healthy Live Long! Ancient Herbal Health",
         "CONTACT_INFO": "ancientherbalhealth@gmail.com"
      },
      {
         "ID": "105",
         "NAME": "Satori Apparel",
         "TYPE": "Shopping",
         "CITY": "Brampton, ON",
         "WEBSITE": "https://satoriapparel.ca/",
         "DESCRIPTION": "Satori is a clothing brand focused on engagement and inclusiveness. Our goal is to create a platform where people can express opinions and experiences that others can relate to or discuss. Using this platform, Satori aspires to include video, audio, and written contributions to ensure everyone can have a say. We look forward to interacting with all of you and remember it's a journey and we want you to join us!",
         "CONTACT_INFO": "https://twitter.com/ApparelSatori\r\nhttps://www.instagram.com/satori.apparel/\r\nhttps://www.youtube.com/channel/UCps08aa_85sV9lYH_UuL02g?view_as=subscriber\r\nsatoriapparel1@gmail.com "
      },
      {
         "ID": "106",
         "NAME": "Let's get chic'",
         "TYPE": "Shopping",
         "CITY": "Brampton, ON",
         "WEBSITE": "https://letsgetchic.com/",
         "DESCRIPTION": "Unisex Adults and children Fashion",
         "CONTACT_INFO": "letsgetchic2@gmail.com\r\nhttps://www.instagram.com/georgewendyann/"
      },
      {
         "ID": "107",
         "NAME": "The New Jem",
         "TYPE": "Shopping",
         "CITY": "Ajax, ON",
         "WEBSITE": "https://www.thenewjem.com/",
         "DESCRIPTION": "The New Jem provides an old charm with a modern approach to Handbags & More. My love for vintage pieces and retro influence is what led me here.",
         "CONTACT_INFO": "jemillahm@thenewjem.com\r\nhttps://www.instagram.com/thenewjem\r\nhttps://www.pinterest.ca/thenewjem"
      },
      {
         "ID": "108",
         "NAME": "MAGICAL & SPIRITUAL GIFTS",
         "TYPE": "Shopping",
         "CITY": "Burlington, ON",
         "WEBSITE": "https://www.magicalspiritualgifts.com/",
         "DESCRIPTION": "We are the primary source for all your spiritual, religious, occult & New Age products, whether you are searching for a candle, oil, herbs, crystal & stones.",
         "CONTACT_INFO": "226-552-0727\r\nmagicalspiritualgifts@gmail.com\r\nhttps://www.facebook.com/MagicalSpiritualGifts\r\nhttps://www.youtube.com/channel/UCOM-MhkFIb0UFkLi7T2yHXQ?view_as=subscriber\r\nhttps://www.instagram.com/magical.spiritual/"
      },
      {
         "ID": "109",
         "NAME": "ZA AND ZOEY BOOKS",
         "TYPE": "Education, Books & Black Authors",
         "CITY": "Burlington, ON",
         "WEBSITE": "https://www.zaandzoeybooks.com/",
         "DESCRIPTION": "Za & Zoey series features 2 main characters who explore tasty recipes as they travel the world from England to China & more. The exciting adventures are endless.",
         "CONTACT_INFO": "1-289-400-8933 "
      },
      {
         "ID": "110",
         "NAME": "Lotus & Flame",
         "TYPE": "Shopping",
         "CITY": "Etobicoke, ON",
         "WEBSITE": "http://www.lotusandflame.com/",
         "DESCRIPTION": "I make hand-made naturally scented soy candles, that are NON-TOXIC with plant based oils.",
         "CONTACT_INFO": "https://www.instagram.com/lotusandflame/\r\nhttps://www.lotusandflame.com/pages/contact-us"
      },
      {
         "ID": "111",
         "NAME": "Daej Designs Inc.",
         "TYPE": "Shopping",
         "CITY": "Etobicoke, ON",
         "WEBSITE": "https://www.daejdesigns.com/",
         "DESCRIPTION": "Daej Designs specializes in hand made furniture, kitchenware and home decor. Sustainably handcrafted items allows one to appreciate all the small details. Eventually becoming heirlooms, these pieces will proudly be passed on from one generation to the next.",
         "CONTACT_INFO": "https://www.instagram.com/daejdesigns/\r\ninfo@daejdesigns.com"
      },
      {
         "ID": "112",
         "NAME": "ZEENA KAY DESIGNS",
         "TYPE": "Shopping",
         "CITY": "Kitchener, ON",
         "WEBSITE": "https://shop.zeenakay.com/",
         "DESCRIPTION": "We are a colourful award-winning fashion label & a great source for custom, authentic African prints & fashion designs for bridal, children & women's wear.",
         "CONTACT_INFO": "info@zeenakay.com\r\nhttps://www.facebook.com/ZNAKZEENAKAY\r\nhttps://instagram.com/znakdesigns\r\nhttps://shop.zeenakay.com/pages/contact"
      },
      {
         "ID": "113",
         "NAME": "SMILEY COMFORTS",
         "TYPE": "Shopping",
         "CITY": "London, ON",
         "WEBSITE": "https://smileycomforts.ca/",
         "DESCRIPTION": "We offer good quality customized apparels. We believe that clothing can be a combination of fashion & art. We bring good energy with our free-spirited designs.",
         "CONTACT_INFO": "https://www.facebook.com/377492249478766\r\nhttps://twitter.com/SmileyComforts\r\nhttps://www.instagram.com/smileycomforts\r\nhttps://www.pinterest.com/comfortssmiley\r\nhttps://www.youtube.com/channel/UCuQ6AEJKoNivVIHRzropKDw\r\ninfo@smileycomforts.ca"
      },
      {
         "ID": "114",
         "NAME": "OCEANSPICE CO.",
         "TYPE": "Restaurants, Bakeries & Grocery",
         "CITY": "London, ON",
         "WEBSITE": "https://oceanspice.ca/",
         "DESCRIPTION": "We are a Caribbean gourmet hot sauce & spice company. We spice up your life! Our products are hand-crafted, small batches, vegan & gluten friendly.",
         "CONTACT_INFO": "https://www.instagram.com/oceanspice_co\r\nhttps://www.facebook.com/oceanspiceco"
      },
      {
         "ID": "115",
         "NAME": "Growing up Black in Niagara",
         "TYPE": "Community & Faith Centers",
         "CITY": "Niagara Falls, ON",
         "WEBSITE": "http://www.growingupblackniagara.com/",
         "DESCRIPTION": "We are an initiative dedicated to creating safe spaces for black youth in the region to connect & share their experiences in order to learn, grow & heal.",
         "CONTACT_INFO": "https://www.facebook.com/Growing-up-black-in-Niagara-2121028831248035/\r\nhttps://www.instagram.com/growingupblackinniagara/?igshid=1uazsznvta9xv"
      },
      {
         "ID": "116",
         "NAME": "DYNASTE LIP BALMS",
         "TYPE": "Hair, Barbers & Beauty",
         "CITY": "Niagara Falls, ON",
         "WEBSITE": "https://www.facebook.com/dynaste.lipbalm",
         "DESCRIPTION": "I’m a 12 year old girl with a vision. I create hydrating lip balms with premium quality Shea Butter & Coconut Oil. There are 12 flavours to choose from!",
         "CONTACT_INFO": "https://www.facebook.com/dynaste.lipbalm"
      },
      {
         "ID": "117",
         "NAME": "TruCase",
         "TYPE": "Media, Events & Entertainment",
         "CITY": "Oakville, ON",
         "WEBSITE": "https://unitedmasters.com/trucase",
         "DESCRIPTION": "Hip Hop, Rap, R&B Entertainment Artiste",
         "CONTACT_INFO": "https://instagram.com/_trucase_\r\nhttps://www.facebook.com/106663260696886\r\nhttps://soundcloud.com/user-23408941"
      },
      {
         "ID": "118",
         "NAME": "Mello Scentsations",
         "TYPE": "Shopping",
         "CITY": "Oshawa, ON",
         "WEBSITE": "https://melloscentsations.ca/",
         "DESCRIPTION": "we make hand pour all natural non toxic chemical free scent soy and shea butter candles and wax melts.",
         "CONTACT_INFO": "289-804-2200\r\nmelloscentsations@gmail.com"
      },
      {
         "ID": "119",
         "NAME": "GleamBeauty",
         "TYPE": "Hair, Barbers & Beauty",
         "CITY": "Oshawa, ON",
         "WEBSITE": "http://www.gleambeauty.ca/",
         "DESCRIPTION": "Creating natural skincare and beauty products by hand, using natural ingredients. Using ingredients you can pronounce to enhance your natural beauty! Be proud of your skin.",
         "CONTACT_INFO": "https://www.instagram.com/gleam.beauty\r\ninfo@gleambeauty.ca"
      },
      {
         "ID": "120",
         "NAME": "AZE BOUTIQUE",
         "TYPE": "Shopping",
         "CITY": "Ottawa, ON",
         "WEBSITE": "https://www.etsy.com/ca/shop/AZEBoutique",
         "DESCRIPTION": "I enjoy making hand-stamped Afrocentric earrings so that customers are able to add personalize phrases that resonate with them.",
         "CONTACT_INFO": "https://www.etsy.com/ca/messages/new?with_id=117565098&referring_id=15812653&referring_type=shop&recipient_id=117565098\r\nhttps://www.pinterest.ca/etsyazeboutique/\r\nhttps://www.instagram.com/azeboutique24/\r\nhttps://www.facebook.com/AZEBoutique-133093500738182/"
      },
      {
         "ID": "121",
         "NAME": "AFRICART",
         "TYPE": "Restaurants, Bakeries & Grocery",
         "CITY": "Ottawa, ON",
         "WEBSITE": "https://africart.ca/",
         "DESCRIPTION": "We are an online African grocery store delivering authentic African food all over Canada.",
         "CONTACT_INFO": "647-674-1643\r\nsupport@africart.ca"
      },
      {
         "ID": "122",
         "NAME": "SITI FASHION HOUSE",
         "TYPE": "Shopping",
         "CITY": "Pickering, ON",
         "WEBSITE": "https://www.etsy.com/ca/shop/SitiFashionHouse",
         "DESCRIPTION": "SITI means LADY in Egyptian. This is a LADY FASHION HOUSE for all QUEENS.\r\n\r\nWe are a African Inspired Fashion Brand. We focused on Exquisite and Unique Head Wraps patterns that would make any women feel like a QUEEN. We have all type of Scarfs , Jewerly, Soaps, Arts from different parts of the world.\r\nOur designs are diverse, different, eye-catching and beautiful !",
         "CONTACT_INFO": "https://www.facebook.com/sitiscarfs\r\nhttps://www.instagram.com/siti_scarfs/\r\nhttp://www.sitifashionhouse.com/\r\nhttps://www.pinterest.ca/sitiscarfs"
      },
      {
         "ID": "123",
         "NAME": "HADRIANA LEO",
         "TYPE": "Financial & Legal Services",
         "CITY": "Pickering, ON",
         "WEBSITE": "https://hadrianaleo.com/contact-us/",
         "DESCRIPTION": "I am your expert guide to customized, optimized finances that help you create an exceptional life. I am your Money Navigator.",
         "CONTACT_INFO": "https://instagram.com/moneynavigator\r\nhttps://www.linkedin.com/in/hadrianaleo/\r\nhttps://www.facebook.com/moneynavigator/\r\ninfo@hadrianaleo.com\r\n4168565931"
      },
      {
         "ID": "124",
         "NAME": "Rubbynz Seasoning",
         "TYPE": "Restaurants, Bakeries & Grocery",
         "CITY": "Scarborough, ON",
         "WEBSITE": "https://rubbynz.ca/shop",
         "DESCRIPTION": "We produce authentic blended seasoning! Providing an easier and healthier way to season your meal.",
         "CONTACT_INFO": "authenticrubbynz@yahoo.com \r\nhttps://www.instagram.com/rubbynz\r\nhttps://twitter.com/Rubbynz1\r\nhttps://www.facebook.com/1268191719991924"
      },
      {
         "ID": "125",
         "NAME": "TGDJB",
         "TYPE": "Media, Events & Entertainment",
         "CITY": "St. Catharines, ON",
         "WEBSITE": "https://dajamaicanboymusic.com/",
         "DESCRIPTION": "I'm a Jamaican artist producing music in genres such as Reggae, Hip Hop, Rap, R&B, Dance Hall & Jamaican Rap.",
         "CONTACT_INFO": "http://twitter.com/dajamaicanboy\r\nhttp://facebook.com/thegeneralmusic\r\nhttps://www.youtube.com/channel/UCkwrdZkYRnrI50EaoKB4o4A\r\nhttps://soundcloud.com/dajamaicanboy\r\nhttps://instagram.com/thegeneralmusic\r\nhttps://open.spotify.com/artist/1PYF1TcSP1sOGh8L1Wtt0b\r\nhttps://itunes.apple.com/ca/artist/the-general-da-jamaican-boy/324849570\r\nhttps://www.amazon.com/General-Jamaican-Greatest-Hits-Album/dp/B01CF86MTW\r\nhttps://www.linkedin.com/in/dajamaicanboy\r\nhttps://www.datpiff.com/profile/dajamaicanboy\r\nhttps://dajamaicanboy.bandcamp.com/album/the-general-da-jamaican-boy-greatest-hits-album\r\nhttps://audiomack.com/Dajamaicanboy"
      },
      {
         "ID": "126",
         "NAME": "Nayams boutique",
         "TYPE": "Shopping",
         "CITY": "Vaughan, ON",
         "WEBSITE": "https://nayamsboutique.com/",
         "DESCRIPTION": "modern inspire African clothing",
         "CONTACT_INFO": "Nayamsboutique@gmail.com\r\nhttps://www.instagram.com/nayamsboutique/\r\nhttps://www.facebook.com/Nayamsboutique-106243890942416/\r\n"
      },
      {
         "ID": "127",
         "NAME": "YTAA",
         "TYPE": "Shopping",
         "CITY": "Vaughan, ON",
         "WEBSITE": "https://ytaa.ca/",
         "DESCRIPTION": "A female clothing and perfume fast fashion brand with trending patterns",
         "CONTACT_INFO": "https://www.facebook.com/officialytaa/\r\nhttps://instagram.com/ytaa_fashion"
      },
      {
         "ID": "128",
         "NAME": "DARYL TOWNSEND",
         "TYPE": "Doctors, Health & Fitness",
         "CITY": "Windsor, ON",
         "WEBSITE": "https://www.instagram.com/dtownsend36/",
         "DESCRIPTION": "Have fitness goals? I can help you reach them. Now offering private, semi private and group training for all fitness levels. Train with a professional athlete!",
         "CONTACT_INFO": "https://www.instagram.com/dtownsend36/"
      }
   ],
   "allCities": [
      {
         "city": "Ajax, ON",
         "LatLng": {
            "lat": 43.8688278,
            "lng": -79.0988097
         }
      },
      {
         "city": "Brampton, ON",
         "LatLng": {
            "lat": 43.683334,
            "lng": -79.766670
         }
      },
      {
         "city": "Burlington, ON",
         "LatLng": {
            "lat": 43.328674,
            "lng": -79.817734
         }
      },
      {
         "city": "Etobicoke, ON",
         "LatLng": {
            "lat": 43.620495,
            "lng": -79.513199
         }
      },
      {
         "city": "Hamilton, ON",
         "LatLng": {
            "lat": 43.255203,
            "lng": -79.843826
         }
      },
      {
         "city": "Kitchener, ON",
         "LatLng": {
            "lat": 43.4303489,
            "lng": -80.6164009
         }
      },
      {
         "city": "London, ON",
         "LatLng": {
            "lat": 42.9487956,
            "lng": -81.3887059
         }
      },
      {
         "city": "Markham, ON",
         "LatLng": {
            "lat": 43.856098,
            "lng": -79.337021
         }
      },
      {
         "city": "Mississauga, ON",
         "LatLng": {
            "lat": 43.595310,
            "lng": -79.640579
         }
      },
      {
         "city": "Niagara Falls, ON",
         "LatLng": {
            "lat": 43.0538471,
            "lng": -79.2281205
         }
      },
      {
         "city": "North York, ON",
         "LatLng": {
            "lat": 43.761539,
            "lng": -79.411079
         }
      },
      {
         "city": "Oakville, ON",
         "LatLng": {
            "lat": 43.45011,
            "lng": -79.68292
         }
      },
      {
         "city": "Oshawa, ON",
         "LatLng": {
            "lat": 43.9482713,
            "lng": -79.0184368
         }
      },
      {
         "city": "Ottawa, ON",
         "LatLng": {
            "lat": 45.248786,
            "lng": -76.3607137
         }
      },
      {
         "city": "Pickering, ON",
         "LatLng": {
            "lat": 43.7653628,
            "lng": -79.3566435
         }
      },
      {
         "city": "Scarborough, ON",
         "LatLng": {
            "lat": 43.777702,
            "lng": -79.233238
         }
      },
      {
         "city": "St. Catharines, ON",
         "LatLng": {
            "lat": 43.18124,
            "lng": -79.3892859
         }
      },
      {
         "city": "Toronto, ON",
         "LatLng": {
            "lat": 43.651070,
            "lng": -79.347015
         }
      },
      {
         "city": "Vaughan, ON",
         "LatLng": {
            "lat": 43.837208,
            "lng": -79.508278
         }
      },
      {
         "city": "Windsor, ON",
         "LatLng": {
            "lat": 42.2949797,
            "lng": -83.0729224
         }
      }
   ]
}